{ "type": "FeatureCollection", "features": [
{ "type": "Feature", "properties": { "marker-size": "medium", "marker-symbol": "cafe", "name": "Sophie's", "creator" : "Colin Sauze", "comment" : "good cooked breakfasts milkshakes and burgers" },
"geometry": { "type": "Point", "coordinates": [-4.082250,52.415250] } },
{ "type": "Feature", "properties": { "marker-size": "medium", "marker-symbol": "cafe", "name": "Express Cafe", "creator" : "Vlad", "comment" : "black pudding" },
"geometry": { "type": "Point", "coordinates": [-4.081978,52.414381] } },
{ "type": "Feature", "properties": { "marker-size": "medium", "marker-symbol": "cafe", "name": "cafe", "creator" : "Dan", "comment" : "Coffee" },
"geometry": { "type": "Point", "coordinates": [-4.081970,52.414380] } },
{ "type": "Feature", "properties": { "marker-size": "medium", "marker-symbol": " resaurant", "name": "Marine hotel", "creator" : " luke", "comment" : " grey tea but nice sausages" },
"geometry": { "type": "Point", "coordinates": [ -4.084173, 52.418663] } },
{ "type": "Feature", "properties": { "marker-size": "medium", "marker-symbol": " cafe", "name": "Dragonfly Bistro", "creator" : " Myles", "comment" : " good vegan options including cake" },
"geometry": { "type": "Point", "coordinates": [-4.086902,52.413587] } },
{ "type": "Feature", "properties": { "marker-size": "medium", "marker-symbol": " Bar", "name": "Bar Uno", "creator" : " Sam", "comment" : " Dan works here" },
"geometry": { "type": "Point", "coordinates": [ -4.138059894398083,53.2269728298928] } },
{ "type": "Feature", "properties": { "marker-size": "medium", "marker-symbol": " Bar", "name": "Castle", "creator" : " Dan", "comment" : " actually in aber" },
"geometry": { "type": "Point", "coordinates": [ -4.081970,52.414400] } },
{ "type": "Feature", "properties": { "marker-size": "medium", "marker-symbol": " Resturant", "name": "Little Italy", "creator" : " Sama", "comment" : " Really good Italian food" },
"geometry": { "type": "Point", "coordinates": [ -4.081400, 52.415770] } }
] }
