{ "type": "FeatureCollection", "features": [
{ "type": "Feature", "properties": { "marker-size": "medium", "marker-symbol": "cafe", "name": "Sophie's", "creator" : "Colin Sauze", "comment" : "good cooked breakfasts" },
"geometry": { "type": "Point", "coordinates": [-4.08225,52.41525] } },
{ "type": "Feature", "properties": { "marker-size": "medium", "marker-symbol": "pub", "name": "Central Bar", "creator" : " Jose Munoz", "comment" : " Nice central pub" },
"geometry": { "type": "Point", "coordinates": [-3.1727564,51.4831668] } },
{ "type": "Feature", "properties": { "marker-size": "medium", "marker-symbol": " cafe", "name": "Bwlch Nant-yr-Arian", "creator" : " Colin Sauze", "comment" : "nice cafe and walks" },
"geometry": { "type": "Point", "coordinates": [-3.88576,52.415272] } },
{ "type": "Feature", "properties": { "marker-size": "medium", "marker-symbol": "pub", "name": "Holly Bush", "creator" : "Hannah Hendry", "comment" : "great pub" },
"geometry": { "type": "Point", "coordinates": [-1.8687513470649717,52.21586695734793] } },
{ "type": "Feature", "properties": { "marker-size": "medium", "marker-symbol": " cafe", "name": "Anna Loka", "creator" : " Adelina", "comment" : " nice vegan food" },
"geometry": { "type": "Point", "coordinates": [ -3.16416,51.49410] } },
{ "type": "Feature", "properties": { "marker-size": "medium", "marker-symbol": " castle", "name": "Wawel", "creator" : " Marek", "comment" : " sightseeing site with dummy coordinates" },
"geometry": { "type": "Point", "coordinates": [ -3.14159, 51.00] } },
{ "type": "Feature", "properties": { "marker-size": "medium", "marker-symbol": " restaurant", "name": "The Pot", "creator" : " Natalie", "comment" : " nice food" },
"geometry": { "type": "Point", "coordinates": [ -3.188340, 51.501240] } },
{ "type": "Feature", "properties": { "marker-size": "medium", "marker-symbol": " pub", "name": "Cedar Tree Farm", "creator" : " Maxim Filimonov", "comment" : " good beer" },
"geometry": { "type": "Point", "coordinates": [ -3.18383, 51.45509] } },
{ "type": "Feature", "properties": { "marker-size": "medium", "marker-symbol": " pub", "name": "Hobgoblin", "creator" : " Gilda Padalino", "comment" : " good beer" },
"geometry": { "type": "Point", "coordinates": [ -2.5917, 51.4720] } },
{ "type": "Feature", "properties": { "marker-size": "medium", "marker-symbol": "pub", "name": "Bottle and Barrel", "creator" : "Alvaro Garcia", "comment" : "Craft beer" },
"geometry": { "type": "Point", "coordinates": [-4.082763,52.415139] } },
{ "type": "Feature", "properties": { "marker-size": "medium", "marker-symbol": " pub", "name": "Heathcock", "creator" : " Hannah Hendry", "comment" : " good food" },
"geometry": { "type": "Point", "coordinates": [ -3.2228028774261475, 51.49654089357593] } }
] }
