{ "type": "FeatureCollection", "features": [
{ "type": "Feature", "properties": { "marker-size": "medium", "marker-symbol": " Cafe", "name": "The Two Hoots", "creator" : " Colin", "comment" : " good sandwiches" },
"geometry": { "type": "Point", "coordinates": [ -3.854604,52.376295] } },
{ "type": "Feature", "properties": { "marker-size": "medium", "marker-symbol": " Restaurant", "name": "Wagamama", "creator" : " Michael", "comment" : " I like Katsu" },
"geometry": { "type": "Point", "coordinates": [ -1.0846077776202492, 51.264863957101966] } },
{ "type": "Feature", "properties": { "marker-size": "medium", "marker-symbol": " Pub", "name": "The White Horse", "creator" : " Luke", "comment" : " Good food and chill" },
"geometry": { "type": "Point", "coordinates": [ -4.0840, 52.4161] } },
{ "type": "Feature", "properties": { "marker-size": "medium", "marker-symbol": " Resturant", "name": "Little Italy", "creator" : " Sama", "comment" : " Really good Italian food" },
"geometry": { "type": "Point", "coordinates": [ -4.081400, 52.415770] } },
{ "type": "Feature", "properties": { "marker-size": "medium", "marker-symbol": " Bar", "name": "Kanes Bar", "creator" : " Tanya", "comment" : " Nice bar" },
"geometry": { "type": "Point", "coordinates": [ -4.082920, 52.415302] } }
] }
