{ "type": "FeatureCollection", "features": [
{ "type": "Feature", "properties": { "marker-size": "medium", "marker-symbol": "cafe", "name": "Sophie's", "creator" : "Colin Sauze", "comment" : "good cooked breakfasts" },
"geometry": { "type": "Point", "coordinates": [-4.08225,52.41525] } },
{ "type": "Feature", "properties": { "marker-size": "medium", "marker-symbol": "bar", "name": "Central Bar", "creator" : " Jose Munoz", "comment" : " Nice central pub" },
"geometry": { "type": "Point", "coordinates": [-3.1727564,51.4831668] } },
{ "type": "Feature", "properties": { "marker-size": "medium", "marker-symbol": "bar", "name": "Birrificio Finalese", "creator" : "Michele Mesiti", "comment" : "good beers" },
"geometry": { "type": "Point", "coordinates": [8.345264, 44.16951] } },
{ "type": "Feature", "properties": { "marker-size": "medium", "marker-symbol": " cafe", "name": "Bwlch Nant-yr-Arian", "creator" : " Colin Sauze", "comment" : "nice cafe and walks" },
"geometry": { "type": "Point", "coordinates": [-3.88576,52.415272] } },
{ "type": "Feature", "properties": { "marker-size": "medium", "marker-symbol": "bar", "name": "Holly Bush", "creator" : "Hannah Hendry", "comment" : "great pub" },
"geometry": { "type": "Point", "coordinates": [-1.8687513470649717,52.21586695734793] } },
{ "type": "Feature", "properties": { "marker-size": "medium", "marker-symbol": " cafe", "name": "Anna Loka", "creator" : " Adelina", "comment" : " nice vegan food" },
"geometry": { "type": "Point", "coordinates": [ -3.16416,51.49410] } },
{ "type": "Feature", "properties": { "marker-size": "medium", "marker-symbol": " castle", "name": "Wawel", "creator" : " Marek", "comment" : " sightseeing site with dummy coordinates" },
"geometry": { "type": "Point", "coordinates": [ -3.14159, 51.00] } },
{ "type": "Feature", "properties": { "marker-size": "medium", "marker-symbol": " restaurant", "name": "The Pot", "creator" : " Natalie", "comment" : " nice food" },
"geometry": { "type": "Point", "coordinates": [ -3.18834, 51.50124] } },
{ "type": "Feature", "properties": { "marker-size": "medium", "marker-symbol": " bar", "name": "Cedar Tree Farm", "creator" : " Maxim Filimonov", "comment" : " good beer" },
"geometry": { "type": "Point", "coordinates": [ -3.18383, 51.45509] } },
{ "type": "Feature", "properties": { "marker-size": "medium", "marker-symbol": " bar", "name": "Hobgoblin", "creator" : " Gilda Padalino", "comment" : " good beer" },
"geometry": { "type": "Point", "coordinates": [ -2.5917, 51.4720] } },
{ "type": "Feature", "properties": { "marker-size": "medium", "marker-symbol": " bar", "name": "Bottle and Barrel", "creator" : " Alvaro Garcia", "comment" : "Excellent craft beer" },
"geometry": { "type": "Point", "coordinates": [-4.082763,52.415139] } },
{ "type": "Feature", "properties": { "marker-size": "medium", "marker-symbol": " mountains", "name": "ScottishHighlands", "creator" : " McClatcheyM", "comment" : " mountains and wilderness" },
"geometry": { "type": "Point", "coordinates": [ -5.03036, 56.57310] } },
{ "type": "Feature", "properties": { "marker-size": "medium", "marker-symbol": " bar", "name": "The Bear Hotel", "creator" : " Jenifer Millard", "comment" : " good food - the DIY shop nearby is also excellent" },
"geometry": { "type": "Point", "coordinates": [ -3.13693, 51.85958] } },
{ "type": "Feature", "properties": { "marker-size": "medium", "marker-symbol": " bar", "name": "Heathcock", "creator" : " Hannah Hendry", "comment" : " good food" },
"geometry": { "type": "Point", "coordinates": [ -3.2228028774261475, 51.49654089357593] } },
{ "type": "Feature", "properties": { "marker-size": "medium", "marker-symbol": " bar", "name": "Pier 64", "creator" : " Jun", "comment" : " good vier" },
"geometry": { "type": "Point", "coordinates": [ -3.1751346588134766, 51.44373668041614] } },
{ "type": "Feature", "properties": { "marker-size": "medium", "marker-symbol": " cafe", "name": "Metchy's Cafe", "creator" : "Marek", "comment" : "good food" },
"geometry": { "type": "Point", "coordinates": [-3.181164264678955,51.49070943547835] } },
{ "type": "Feature", "properties": { "marker-size": "medium", "marker-symbol": "bar", "name": "Heath", "creator" : "Jose Munoz", "comment" : "Great white bait" },
"geometry": { "type": "Point", "coordinates": [-3.1853923,51.4994666] } },
{ "type": "Feature", "properties": { "marker-size": "medium", "marker-symbol": "cafe", "name": "Ikea", "creator" : "David Hodgkinson", "comment" : "Free coffee for members" },
"geometry": { "type": "Point", "coordinates": [-3.188771,51.462222] } },
{ "type": "Feature", "properties": { "marker-size": "medium", "marker-symbol": "restaurant", "name": "Milliways", "creator" : "Douglas Adams", "comment" : "a bit expensive" },
"geometry": { "type": "Point", "coordinates": [42.00,42.00] } },
{ "type": "Feature", "properties": { "marker-size": "medium", "marker-symbol": "bar", "name": "Plymouth Arms", "creator" : "David Hodgkinson", "comment" : " local" },
"geometry": { "type": "Point", "coordinates": [ -3.188771,51.462717] } },
{ "type": "Feature", "properties": { "marker-size": "medium", "marker-symbol": " restaurant", "name": "Simplesmente", "creator" : " Adelina", "comment" : " best food I have ever had" },
"geometry": { "type": "Point", "coordinates": [ -9.144940, 38.712510] } },
{ "type": "Feature", "properties": { "marker-size": "medium", "marker-symbol": " cafe", "name": "Agnelli's", "creator" : " Gilda Padalino", "comment" : " good food" },
"geometry": { "type": "Point", "coordinates": [ -4.0860, 52.4141] } },
{ "type": "Feature", "properties": { "marker-size": "medium", "marker-symbol": " bar", "name": "The Birchgrove", "creator" : " Jun", "comment" : " good pub quiz" },
"geometry": { "type": "Point", "coordinates": [ -3.2000148296356197, 51.511169] } }
] }
