{ "type": "FeatureCollection", "features": [
{ "type": "Feature", "properties": { "marker-size": "medium", "marker-symbol": "cafe", "name": "Rhossili cafe", "creator" : "Thomas Spriggs", "comment" : "garbage wifi but unreal scenes" },
"geometry": { "type": "Point", "coordinates": [-4.2963,51.5661] } },
{ "type": "Feature", "properties": { "marker-size": "medium", "marker-symbol": "cafe", "name": "Sophie's", "creator" : "Colin Sauze", "comment" : "good cooked breakfasts" },
"geometry": { "type": "Point", "coordinates": [-4.08225774765014,52.415259842] } },
{ "type": "Feature", "properties": { "marker-size": "medium", "marker-symbol": "bar", "name": "White Bear", "creator" : "Chris Wright", "comment" : "good cider selection" },
"geometry": { "type": "Point", "coordinates": [-2.60158,51.46034] } },
{ "type": "Feature", "properties": { "marker-size": "medium", "marker-symbol": "cafe", "name": "Old College", "creator" : "Colin", "comment" : "university catering" },
"geometry": { "type": "Point", "coordinates": [-4.08848,52.41472] } },
{ "type": "Feature", "properties": { "marker-size": "medium", "marker-symbol": "bar", "name": "Cube", "creator" : "Ben Winter", "comment" : "Sticky floors" },
"geometry": { "type": "Point", "coordinates": [-4.122925400733947,53.229095400662345] } },
{ "type": "Feature", "properties": { "marker-size": "medium", "marker-symbol": " pub", "name": "generic Pub", "creator" : "Eleonora", "comment" : " Not relevant" },
"geometry": { "type": "Point", "coordinates": [-4.09,52.5] } },
{ "type": "Feature", "properties": { "marker-size": "medium", "marker-symbol": "bar", "name": "Downies", "creator" : " Tonicha", "comment" : " Cheap but grim" },
"geometry": { "type": "Point", "coordinates": [ -4.08594,52.41492] } },
{ "type": "Feature", "properties": { "marker-size": "medium", "marker-symbol": "bar", "name": "spoons", "creator" : "cory", "comment" : "its spoons" },
"geometry": { "type": "Point", "coordinates": [-4.08163,52.4140] } },
{ "type": "Feature", "properties": { "marker-size": "medium", "marker-symbol": "restaurant", "name": "Beerd", "creator" : "Robbie", "comment" : "Beer and pizza" },
"geometry": { "type": "Point", "coordinates": [-2.602365016937256,51.46124182232766] } },
{ "type": "Feature", "properties": { "marker-size": "medium", "marker-symbol": "bar", "name": "two brew", "creator" : "cory", "comment" : "Its lovely" },
"geometry": { "type": "Point", "coordinates": [-3.56098,51.50691] } },
{ "type": "Feature", "properties": { "marker-size": "medium", "marker-symbol": "resturant", "name": "The Moon Inn", "creator" : "Tonicha", "comment" : "Fab Food" },
"geometry": { "type": "Point", "coordinates": [-2.62555,52.03271] } },
{ "type": "Feature", "properties": { "marker-size": "medium", "marker-symbol": "restaurant", "name": "maccies", "creator" : "Tom", "comment" : " gormet meal - all round great day out for the family" },
"geometry": { "type": "Point", "coordinates": [ -3.9450, 51.6210] } },
{ "type": "Feature", "properties": { "marker-size": "medium", "marker-symbol": "bar", "name": "Stag and Hounds", "creator" : "Chris Wright", "comment" : "good pizzas and great beers" },
"geometry": { "type": "Point", "coordinates": [-2.58322,51.45524] } },
{ "type": "Feature", "properties": { "marker-size": "medium", "marker-symbol": "bar", "name": "Academi", "creator" : "Ben Winter", "comment" : "Student bar" },
"geometry": { "type": "Point", "coordinates": [-4.13235068321228,53.22610242849201] } }
] }
