{ "type": "FeatureCollection", "features": [
{ "type": "Feature", "properties": { "marker-size": "medium", "marker-symbol": "bar", "name": "Wetherspoons", "creator" : "Colin Sauze", "comment" : "cheap drinks" },
"geometry": { "type": "Point", "coordinates": [-4.0815281867980,52.4140688391712] } },
{ "type": "Feature", "properties": { "marker-size": "medium", "marker-symbol": "cafe", "name": "Sophie's", "creator" : "Colin Sauze", "comment" : "good cooked breakfasts" },
"geometry": { "type": "Point", "coordinates": [-4.08225774765014,52.415259842] } },
{ "type": "Feature", "properties": { "marker-size": "medium", "marker-symbol": " bar", "name": "Glengower", "creator" : " Alex", "comment" : " Sea views" },
"geometry": { "type": "Point", "coordinates": [ -4.084371328353882, 52.42050445255332] } },
{ "type": "Feature", "properties": { "marker-size": "medium", "marker-symbol": "bar", "name": "Ship and Castle", "creator" : "Carole", "comment" : " nice ciders" },
"geometry": { "type": "Point", "coordinates": [-4.086710214614868,52.41309703555428] } },
{ "type": "Feature", "properties": { "marker-size": "medium", "marker-symbol": "desk", "name": "Cledwyn G24", "creator" : " Gabe Muro", "comment" : "i drink where i want" },
"geometry": { "type": "Point", "coordinates": [-4.067162275314,52.41699066516] } },
{ "type": "Feature", "properties": { "marker-size": "medium", "marker-symbol": "cafe", "name": "Caffi Tan", "creator" : "Colin Sauze", "comment" : "nice sandwiches" },
"geometry": { "type": "Point", "coordinates": [-4.085433483123779,52.40967101159238] } },
{ "type": "Feature", "properties": { "marker-size": "medium", "marker-symbol": " takeaway", "name": "fusion king", "creator" : " suvarna", "comment" : " udon noodles" },
"geometry": { "type": "Point", "coordinates": [ -4.086219370365143,52.414845939449] } },
{ "type": "Feature", "properties": { "marker-size": "medium", "marker-symbol": " resturaunt", "name": "Royal Pier", "creator" : " Azam Nekoo", "comment" : " dinners" },
"geometry": { "type": "Point", "coordinates": [ -4.087836742401123, 52.415927313050645] } },
{ "type": "Feature", "properties": { "marker-size": "medium", "marker-symbol": " restaurant", "name": "Ultra comida", "creator" : " Alex", "comment" : " Tapas" },
"geometry": { "type": "Point", "coordinates": [ -4.0865868, 52.41506] } },
{ "type": "Feature", "properties": { "marker-size": "medium", "marker-symbol": " bar", "name": "Scholars'", "creator" : " Adam Price", "comment" : " quiet enough to play chess" },
"geometry": { "type": "Point", "coordinates": [ -4.081010520458221, 52.41655878370687] } },
{ "type": "Feature", "properties": { "marker-size": "medium", "marker-symbol": " bar", "name": "Arts Centre", "creator" : " Adam Price", "comment" : " where everybody actually plays chess" },
"geometry": { "type": "Point", "coordinates": [ -4.06268835067749, 52.416064732305216] } },
{ "type": "Feature", "properties": { "marker-size": "medium", "marker-symbol": "stick", "name": "Pen Dinas Fort", "creator" : "Gabe Muro", "comment" : " nice view" },
"geometry": { "type": "Point", "coordinates": [-4.082375764846802,52.402896713951165] } },
{ "type": "Feature", "properties": { "marker-size": "medium", "marker-symbol": " cafe", "name": "Coffee#1", "creator" : " suvarna", "comment" : " portugese tart" },
"geometry": { "type": "Point", "coordinates": [ -4.0837, 52.4161] } }
] }
