{ "type": "FeatureCollection", "features": [
{ "type": "Feature", "properties": { "marker-size": "medium", "marker-symbol": "symbol", "name": "name", "creator" : "creator", "comment" : "comments" },
"geometry": { "type": "Point", "coordinates": [lon,lat] } },
{ "type": "Feature", "properties": { "marker-size": "medium", "marker-symbol": "bar", "name": "Wetherspoons", "creator" : "Colin Sauze", "comment" : "cheap drinks" },
"geometry": { "type": "Point", "coordinates": [-4.0815281867980,52.4140688391712] } },
{ "type": "Feature", "properties": { "marker-size": "medium", "marker-symbol": "cafe", "name": "Sophie's", "creator" : "Colin Sauze", "comment" : "good cooked breakfasts" },
"geometry": { "type": "Point", "coordinates": [-4.08225774765014,52.415259842] } },
{ "type": "Feature", "properties": { "marker-size": "medium", "marker-symbol": "pub", "name": "Ship and Castle", "creator" : "Carole", "comment" : " nice ciders" },
"geometry": { "type": "Point", "coordinates": [-4.086710214614868,52.41309703555428] } },
{ "type": "Feature", "properties": { "marker-size": "medium", "marker-symbol": " Gabe Muro", "name": "Cledwyn G24", "creator" : "i drink where i want", "comment" : "-4.067162275314331" },
"geometry": { "type": "Point", "coordinates": [52.41699066516612,] } },
{ "type": "Feature", "properties": { "marker-size": "medium", "marker-symbol": "cafe", "name": "Caffi Tan", "creator" : "Colin Sauze", "comment" : "nice sandwiches" },
"geometry": { "type": "Point", "coordinates": [-4.085433483123779,52.40967101159238] } },
{ "type": "Feature", "properties": { "marker-size": "medium", "marker-symbol": " takeaway", "name": "fusion king", "creator" : " suvarna", "comment" : " udon noodles" },
"geometry": { "type": "Point", "coordinates": [ -4.086219370365143,52.414845939449] } },
{ "type": "Feature", "properties": { "marker-size": "medium", "marker-symbol": " resturaunt", "name": "Royal Pier", "creator" : " Azam Nekoo", "comment" : " dinners" },
"geometry": { "type": "Point", "coordinates": [ -4.087836742401123, 52.415927313050645] } }
] }
